City_ID,City,Country,Date,Lat,Lng,Max Temp,Humidity,Cloudiness,Wind Speed,description,Rain Inches (last 3 hrs),Snow Inches (last 3 hrs)
0,Port Alfred,ZA,2020-04-19 15:54:32,-33.59,26.89,81.54,52,39,17.45,scattered clouds,0.0,0.0
1,Grindavik,IS,2020-04-19 15:49:22,63.84,-22.43,46.99,100,90,23.04,light intensity drizzle,0.0,0.0
2,Shimoda,JP,2020-04-19 15:54:43,34.67,138.95,55.0,84,100,1.99,overcast clouds,0.0,0.0
3,Ushuaia,AR,2020-04-19 15:51:46,-54.8,-68.3,44.6,75,75,1.1,broken clouds,0.0,0.0
4,Kapaa,US,2020-04-19 15:53:45,22.08,-159.32,69.8,83,90,5.82,overcast clouds,0.0,0.0
5,Chuy,UY,2020-04-19 15:53:51,-33.7,-53.46,71.15,67,0,7.92,clear sky,0.0,0.0
6,Puerto Ayora,EC,2020-04-19 15:46:57,-0.74,-90.35,84.0,83,40,13.87,scattered clouds,0.0,0.0
7,Khatanga,RU,2020-04-19 15:54:55,71.97,102.5,18.73,94,43,4.99,scattered clouds,0.0,0.0
8,Juruti,BR,2020-04-19 15:55:47,-2.15,-56.09,74.66,96,100,1.81,moderate rain,10.67,0.0
9,Kaitangata,NZ,2020-04-19 15:49:00,-46.28,169.85,48.99,54,54,8.01,broken clouds,0.0,0.0
10,Kavieng,PG,2020-04-19 15:53:56,-2.57,150.8,84.07,70,34,4.27,scattered clouds,0.0,0.0
11,Jashpurnagar,IN,2020-04-19 15:55:48,22.9,84.15,79.65,23,1,2.37,clear sky,0.0,0.0
12,Kodiak,US,2020-04-19 15:54:10,57.79,-152.41,42.8,87,90,8.05,overcast clouds,0.0,0.0
13,Vila Franca Do Campo,PT,2020-04-19 15:54:55,37.72,-25.43,62.6,59,20,32.21,few clouds,0.0,0.0
14,Qaanaaq,GL,2020-04-19 15:53:58,77.48,-69.36,15.82,84,39,11.65,scattered clouds,0.0,0.0
15,Nikolskoye,RU,2020-04-19 15:54:17,59.7,30.79,44.01,68,75,8.95,broken clouds,0.0,0.0
16,Galveston,US,2020-04-19 15:55:49,29.37,-94.97,75.99,94,90,5.82,light rain,0.0,0.0
17,Carnot,CF,2020-04-19 15:55:49,4.94,15.87,85.73,52,100,3.67,light rain,0.58,0.0
18,Castro,BR,2020-04-19 15:50:10,-24.79,-50.01,70.36,39,2,5.28,clear sky,0.0,0.0
19,Butaritari,KI,2020-04-19 15:53:48,3.07,172.79,82.47,77,10,14.27,light rain,2.66,0.0
20,Maldonado,UY,2020-04-19 15:55:49,-34.67,-54.92,77.0,60,20,10.29,few clouds,0.0,0.0
21,Hamilton,US,2020-04-19 15:54:32,39.18,-84.53,54.0,62,1,6.93,clear sky,0.0,0.0
22,Srednekolymsk,RU,2020-04-19 15:53:51,67.45,153.68,-5.33,90,4,5.03,clear sky,0.0,0.0
23,Tuatapere,NZ,2020-04-19 15:52:56,-46.13,167.68,43.0,84,79,5.01,light rain,0.75,0.0
24,Longyearbyen,SJ,2020-04-19 15:53:58,78.22,15.64,33.8,80,75,11.41,light rain and snow,0.0,0.0
25,Egvekinot,RU,2020-04-19 15:55:50,66.32,-179.17,6.76,89,99,13.31,overcast clouds,0.0,0.0
26,Hithadhoo,MV,2020-04-19 15:54:00,-0.6,73.08,85.23,74,29,11.41,scattered clouds,0.0,0.0
27,Anori,BR,2020-04-19 15:55:51,-3.77,-61.64,81.63,88,100,3.0,moderate rain,3.86,0.0
28,Sinnamary,GF,2020-04-19 15:55:52,5.38,-52.95,81.23,81,97,8.14,moderate rain,8.63,0.0
29,Ahuimanu,US,2020-04-19 15:55:52,21.44,-157.84,78.8,61,20,3.36,few clouds,0.0,0.0
30,North Platte,US,2020-04-19 15:51:59,41.12,-100.77,51.01,57,1,11.41,clear sky,0.0,0.0
31,Albany,US,2020-04-19 15:54:06,42.6,-73.97,55.99,33,2,7.38,clear sky,0.0,0.0
32,Rio Gallegos,AR,2020-04-19 15:48:59,-51.62,-69.22,48.2,66,73,32.21,broken clouds,0.0,0.0
33,Norman Wells,CA,2020-04-19 15:54:08,65.28,-126.83,24.8,92,75,19.46,light snow,0.0,0.0
34,Nichinan,JP,2020-04-19 15:55:54,31.6,131.37,68.0,88,90,19.46,shower rain,0.0,0.0
35,Tuktoyaktuk,CA,2020-04-19 15:53:48,69.45,-133.04,5.0,84,90,14.99,light snow,0.0,0.0
36,Elmina,GH,2020-04-19 15:55:54,5.09,-1.35,86.41,70,77,15.64,light rain,1.34,0.0
37,Tiksi,RU,2020-04-19 15:46:53,71.69,128.87,9.7,84,72,6.42,broken clouds,0.0,0.0
38,Ocos,GT,2020-04-19 15:54:35,14.51,-92.19,84.2,79,75,2.24,broken clouds,0.0,0.0
39,Belmonte,BR,2020-04-19 15:49:19,-15.86,-38.88,75.2,88,75,6.93,light rain,0.0,0.0
40,Punta Arenas,CL,2020-04-19 15:51:48,-53.15,-70.92,44.6,65,40,42.5,scattered clouds,0.0,0.0
41,Realeza,BR,2020-04-19 15:55:55,-25.77,-53.53,77.99,42,0,4.23,clear sky,0.0,0.0
42,Moura,PT,2020-04-19 15:55:56,38.14,-7.45,64.4,52,75,16.11,broken clouds,0.0,0.0
43,Hilo,US,2020-04-19 15:54:02,19.73,-155.09,66.99,68,90,9.17,overcast clouds,0.0,0.0
44,Berlevag,NO,2020-04-19 15:53:49,70.86,29.09,37.4,80,75,9.17,broken clouds,0.0,0.0
45,New Norfolk,AU,2020-04-19 15:53:54,-42.78,147.06,48.0,83,100,3.51,overcast clouds,0.0,0.0
46,Terrace,CA,2020-04-19 15:54:15,54.52,-128.6,42.01,93,20,1.03,few clouds,0.0,0.0
47,Rikitea,PF,2020-04-19 15:53:50,-23.12,-134.97,76.51,69,20,6.33,few clouds,0.0,0.0
48,Kultayevo,RU,2020-04-19 15:55:57,57.89,55.94,39.2,86,20,6.71,few clouds,0.0,0.0
49,Fairbanks,US,2020-04-19 15:53:55,64.84,-147.72,39.0,100,90,2.06,overcast clouds,0.0,0.0
50,Narsaq,GL,2020-04-19 15:50:00,60.92,-46.05,32.0,85,3,4.7,clear sky,0.0,0.0
51,Poiana Marului,RO,2020-04-19 15:55:58,45.6,25.3,57.0,71,95,3.0,light rain,2.58,0.0
52,Jamestown,US,2020-04-19 15:53:48,42.1,-79.24,46.4,72,75,17.22,broken clouds,0.0,0.0
53,Cape Town,ZA,2020-04-19 15:53:49,-33.93,18.42,70.0,88,20,18.34,few clouds,0.0,0.0
54,Vaini,TO,2020-04-19 15:53:54,-21.2,-175.2,77.0,83,20,8.05,few clouds,0.0,0.0
55,Inirida,CO,2020-04-19 15:55:59,3.87,-67.92,77.16,88,91,2.93,moderate rain,3.16,0.0
56,Vestmannaeyjar,IS,2020-04-19 15:48:58,63.44,-20.27,44.6,100,75,13.87,moderate rain,0.0,0.0
57,Mataura,NZ,2020-04-19 15:53:52,-46.19,168.86,43.0,84,87,5.01,overcast clouds,0.0,0.0
58,Soria,ES,2020-04-19 15:56:00,41.67,-2.67,53.01,80,100,4.0,moderate rain,3.07,0.0
59,Faanui,PF,2020-04-19 15:54:33,-16.48,-151.75,82.51,78,79,14.38,broken clouds,0.0,0.0
60,Nalut,LY,2020-04-19 15:56:00,30.33,10.85,99.72,9,76,18.07,broken clouds,0.0,0.0
61,Yellowknife,CA,2020-04-19 15:53:01,62.46,-114.35,19.4,79,40,11.41,scattered clouds,0.0,0.0
62,Rio Grande,BR,2020-04-19 15:53:33,-32.03,-52.1,78.8,61,40,9.17,scattered clouds,0.0,0.0
63,Dogondoutchi,NE,2020-04-19 15:55:39,13.64,4.03,105.89,11,99,1.79,overcast clouds,0.0,0.0
64,Husavik,IS,2020-04-19 15:56:01,66.04,-17.34,51.8,62,90,24.16,overcast clouds,0.0,0.0
65,Golden,US,2020-04-19 15:51:44,39.76,-105.22,44.01,37,40,9.17,scattered clouds,0.0,0.0
66,Saldanha,ZA,2020-04-19 15:49:40,-33.01,17.94,64.4,77,0,10.29,clear sky,0.0,0.0
67,Geraldton,AU,2020-04-19 15:54:15,-28.77,114.6,60.8,77,71,6.11,broken clouds,0.0,0.0
68,Hermanus,ZA,2020-04-19 15:53:51,-34.42,19.23,70.0,76,57,1.01,broken clouds,0.0,0.0
69,Borodino,RU,2020-04-19 15:55:45,55.91,94.9,36.41,62,0,14.18,clear sky,0.0,0.0
70,Komsomolskiy,UZ,2020-04-19 15:54:11,40.43,71.72,64.4,39,5,2.24,clear sky,0.0,0.0
71,Puerto Del Rosario,ES,2020-04-19 15:56:02,28.5,-13.86,73.4,43,20,16.11,few clouds,0.0,0.0
72,Kruisfontein,ZA,2020-04-19 15:49:53,-34.0,24.73,87.51,32,15,5.41,few clouds,0.0,0.0
73,College,US,2020-04-19 15:54:19,64.86,-147.8,42.01,93,90,2.01,overcast clouds,0.0,0.0
74,Tosya,TR,2020-04-19 15:56:03,41.02,34.04,66.25,22,57,1.48,broken clouds,0.0,0.0
75,Isangel,VU,2020-04-19 15:54:53,-19.55,169.27,78.93,85,100,15.95,light rain,2.24,0.0
76,Teahupoo,PF,2020-04-19 15:56:03,-17.83,-149.27,78.8,78,75,3.36,broken clouds,0.0,0.0
77,Atuona,PF,2020-04-19 15:53:57,-9.8,-139.03,82.81,74,91,16.15,overcast clouds,0.0,0.0
78,Georgetown,MY,2020-04-19 15:54:01,5.41,100.34,84.2,88,20,5.82,few clouds,0.0,0.0
79,Tual,ID,2020-04-19 15:54:44,-5.67,132.75,84.38,70,98,3.65,overcast clouds,0.0,0.0
80,Marienburg,PL,2020-04-19 15:56:04,54.04,19.03,48.99,57,0,15.82,clear sky,0.0,0.0
81,Gat,IL,2020-04-19 15:54:53,31.61,34.76,77.0,39,7,14.16,clear sky,0.0,0.0
82,Busselton,AU,2020-04-19 15:53:49,-33.65,115.33,55.0,59,95,9.4,overcast clouds,0.0,0.0
83,Mar Del Plata,AR,2020-04-19 15:52:12,-38.0,-57.56,73.0,64,0,20.8,clear sky,0.0,0.0
84,Visnes,NO,2020-04-19 15:56:05,59.36,5.22,55.0,71,0,8.05,clear sky,0.0,0.0
85,Beringovskiy,RU,2020-04-19 15:54:35,63.05,179.32,16.43,96,100,14.25,light snow,0.0,0.83
86,Ust-Tsilma,RU,2020-04-19 15:49:42,65.44,52.15,35.26,97,100,3.69,overcast clouds,0.0,0.0
87,Thunder Bay,CA,2020-04-19 15:51:15,48.4,-89.32,33.01,79,75,3.36,light snow,0.0,0.0
88,Lorengau,PG,2020-04-19 15:49:31,-2.02,147.27,82.69,77,50,3.4,scattered clouds,0.0,0.0
89,Ixtapa,MX,2020-04-19 15:56:06,20.7,-105.2,77.0,73,75,2.44,broken clouds,0.0,0.0
90,Pangnirtung,CA,2020-04-19 15:54:46,66.15,-65.71,7.68,87,92,4.27,overcast clouds,0.0,0.0
91,Tiznit,MA,2020-04-19 15:56:07,29.58,-9.5,61.38,55,81,18.45,light rain,0.11,0.0
92,Danilovka,RU,2020-04-19 15:56:07,50.36,44.12,50.59,46,100,5.21,overcast clouds,0.0,0.0
93,Hobart,AU,2020-04-19 15:52:46,-42.88,147.33,51.01,81,75,4.7,broken clouds,0.0,0.0
94,Turukhansk,RU,2020-04-19 15:54:57,65.82,87.98,39.47,79,100,16.06,overcast clouds,0.0,0.0
95,Oudtshoorn,ZA,2020-04-19 15:56:08,-33.59,22.2,71.6,56,99,13.87,overcast clouds,0.0,0.0
96,Muyezerskiy,RU,2020-04-19 15:56:08,63.93,31.65,36.32,78,100,4.65,light snow,0.0,0.14
97,Polonnaruwa,LK,2020-04-19 15:56:08,7.93,81.0,80.06,76,72,4.05,light rain,0.36,0.0
98,Tasiilaq,GL,2020-04-19 15:55:00,65.61,-37.64,32.0,97,100,23.04,light intensity shower rain,0.0,0.0
99,Provideniya,RU,2020-04-19 15:54:53,64.38,-173.3,17.51,95,100,15.12,light snow,0.0,0.64
100,Vila,PT,2020-04-19 15:56:09,42.03,-8.16,62.01,77,20,13.87,few clouds,0.0,0.0
101,Bluff,NZ,2020-04-19 15:51:50,-46.6,168.33,43.0,84,96,5.01,light rain,0.98,0.0
102,Piney Green,US,2020-04-19 15:56:09,34.72,-77.32,73.0,52,1,9.17,clear sky,0.0,0.0
103,East Wenatchee Bench,US,2020-04-19 15:56:09,47.43,-120.28,50.0,61,1,5.82,clear sky,0.0,0.0
104,Talnakh,RU,2020-04-19 15:46:55,69.49,88.4,39.2,69,100,31.32,overcast clouds,0.0,0.0
105,Hambantota,LK,2020-04-19 15:49:12,6.12,81.12,83.66,79,99,12.37,light rain,1.6,0.0
106,Cairns,AU,2020-04-19 15:54:41,-16.92,145.77,77.0,94,90,1.12,overcast clouds,0.0,0.0
107,Avarua,CK,2020-04-19 15:53:46,-21.21,-159.78,77.0,83,21,4.7,few clouds,0.0,0.0
108,Cidreira,BR,2020-04-19 15:54:33,-30.18,-50.21,72.68,63,0,13.27,clear sky,0.0,0.0
109,Mount Gambier,AU,2020-04-19 15:54:25,-37.83,140.77,55.4,87,90,21.92,overcast clouds,0.0,0.0
110,Esperance,AU,2020-04-19 15:48:58,-33.87,121.9,55.4,82,75,4.7,broken clouds,0.0,0.0
111,Bambous Virieux,MU,2020-04-19 15:46:58,-20.34,57.76,78.01,73,40,11.41,scattered clouds,0.0,0.0
112,Thompson,CA,2020-04-19 15:54:08,55.74,-97.86,15.8,72,90,5.82,light snow,0.0,0.0
113,Morgan City,US,2020-04-19 15:49:07,29.7,-91.21,80.6,83,20,11.41,few clouds,0.0,0.0
114,Marsa Matruh,EG,2020-04-19 15:56:12,31.35,27.25,64.4,63,0,4.7,clear sky,0.0,0.0
115,Nizhniy Odes,RU,2020-04-19 15:56:12,63.64,54.86,35.02,94,100,3.74,light rain,0.17,0.0
116,San Lorenzo,PY,2020-04-19 15:55:14,-25.33,-57.53,86.0,48,0,9.17,clear sky,0.0,0.0
117,Bonavista,CA,2020-04-19 15:48:46,48.65,-53.11,31.96,95,100,21.83,overcast clouds,0.0,0.0
118,Coihaique,CL,2020-04-19 15:56:12,-45.58,-72.07,48.2,66,90,10.29,light intensity shower rain,0.0,0.0
119,Mount Isa,AU,2020-04-19 15:56:13,-20.73,139.5,64.4,48,8,6.78,clear sky,0.0,0.0
120,Akyab,MM,2020-04-19 15:56:13,20.15,92.9,80.47,84,0,8.19,clear sky,0.0,0.0
121,Suhbaatar,MN,2020-04-19 15:56:13,50.23,106.21,29.28,63,57,8.14,broken clouds,0.0,0.0
122,Cabinda,AO,2020-04-19 15:56:13,-5.55,12.2,87.8,70,20,6.93,few clouds,0.0,0.0
123,Bredasdorp,ZA,2020-04-19 15:54:00,-34.53,20.04,73.4,49,7,16.11,clear sky,0.0,0.0
124,Cabo San Lucas,MX,2020-04-19 15:53:44,22.89,-109.91,73.0,88,5,7.45,clear sky,0.0,0.0
125,Luhyny,UA,2020-04-19 15:56:14,51.08,28.4,48.34,48,100,11.61,light rain,0.3,0.0
126,Inhambane,MZ,2020-04-19 15:49:52,-23.86,35.38,78.8,61,20,9.17,few clouds,0.0,0.0
127,Coquimbo,CL,2020-04-19 15:49:08,-29.95,-71.34,57.2,93,90,10.29,mist,0.0,0.0
128,Armizonskoye,RU,2020-04-19 15:56:15,55.95,67.67,48.13,50,23,6.85,few clouds,0.0,0.0
129,Aswan,EG,2020-04-19 15:56:15,24.09,32.91,88.95,12,0,5.82,clear sky,0.0,0.0
130,Severo-Kurilsk,RU,2020-04-19 15:54:40,50.68,156.12,26.64,91,15,16.26,few clouds,0.0,0.0
131,Grand-Santi,GF,2020-04-19 15:54:58,4.25,-54.38,89.8,56,84,3.4,light rain,0.7,0.0
132,Aksarayskiy,RU,2020-04-19 15:56:16,46.79,48.01,64.4,27,78,2.24,broken clouds,0.0,0.0
133,Klaksvik,FO,2020-04-19 15:54:25,62.23,-6.59,48.2,76,0,11.41,clear sky,0.0,0.0
134,Fort Frances,CA,2020-04-19 15:56:16,48.6,-93.4,30.99,36,1,10.29,clear sky,0.0,0.0
135,Victoria,HK,2020-04-19 15:50:18,22.29,114.16,77.0,83,78,5.99,broken clouds,0.0,0.0
136,Biaora,IN,2020-04-19 15:56:17,23.87,76.92,87.42,14,57,4.5,broken clouds,0.0,0.0
137,Clyde River,CA,2020-04-19 15:55:01,70.47,-68.59,1.4,77,75,4.68,broken clouds,0.0,0.0
138,Shizunai,JP,2020-04-19 15:54:53,42.33,142.37,40.03,69,43,9.28,scattered clouds,0.0,0.0
139,Salalah,OM,2020-04-19 15:54:30,17.02,54.09,84.2,70,40,8.05,scattered clouds,0.0,0.0
140,Ponta Do Sol,PT,2020-04-19 15:54:04,32.67,-17.1,69.01,48,21,5.99,few clouds,0.0,0.0
141,Ribeira Grande,PT,2020-04-19 15:52:51,38.52,-28.7,62.6,63,40,25.28,scattered clouds,0.0,0.0
142,Lagoa,PT,2020-04-19 15:49:41,39.05,-27.98,58.28,66,24,32.84,light rain,0.52,0.0
143,San Blas,MX,2020-04-19 15:56:18,21.52,-105.27,73.4,56,75,3.38,broken clouds,0.0,0.0
144,Arraial Do Cabo,BR,2020-04-19 15:53:53,-22.97,-42.03,78.8,65,20,8.05,few clouds,0.0,0.0
145,Alamos,MX,2020-04-19 15:56:19,27.02,-108.93,74.98,44,5,2.98,clear sky,0.0,0.0
146,Labuhan,ID,2020-04-19 15:45:39,-6.88,112.21,81.27,79,54,2.77,light rain,0.63,0.0
147,Hasaki,JP,2020-04-19 15:50:31,35.73,140.83,48.2,87,75,11.41,light intensity shower rain,0.0,0.0
148,Mulki,IN,2020-04-19 15:56:20,13.1,74.8,86.0,74,20,3.36,few clouds,0.0,0.0
149,Behbahan,IR,2020-04-19 15:56:20,30.6,50.24,77.0,38,75,8.19,broken clouds,0.0,0.0
150,San Cristobal,VE,2020-04-19 15:49:13,7.77,-72.22,84.2,62,40,2.24,smoke,0.0,0.0
151,Baykit,RU,2020-04-19 15:56:20,61.67,96.37,25.68,91,0,2.48,clear sky,0.0,0.0
152,Souillac,MU,2020-04-19 15:54:07,-20.52,57.52,77.0,73,40,11.41,scattered clouds,0.0,0.0
153,Bambanglipuro,ID,2020-04-19 15:55:51,-7.95,110.28,80.35,78,81,2.44,light rain,1.24,0.0
154,Peleduy,RU,2020-04-19 15:56:21,59.63,112.74,15.12,91,10,3.24,clear sky,0.0,0.0
155,Corinto,GR,2020-04-19 15:56:21,37.94,22.96,79.0,43,100,5.82,overcast clouds,0.0,0.0
156,Mirnyy,RU,2020-04-19 15:56:22,62.54,113.96,17.6,67,38,6.71,scattered clouds,0.0,0.0
157,The Valley,AI,2020-04-19 15:54:22,18.22,-63.06,86.0,58,40,10.29,scattered clouds,0.0,0.0
158,Carnarvon,AU,2020-04-19 15:53:57,-24.87,113.63,75.2,78,62,13.87,broken clouds,0.0,0.0
159,Wuwei,CN,2020-04-19 15:56:22,37.93,102.64,54.0,27,98,8.05,overcast clouds,0.0,0.0
160,Mortka,RU,2020-04-19 15:56:22,59.33,66.02,41.34,74,38,5.44,scattered clouds,0.0,0.0
161,Japura,ID,2020-04-19 15:56:23,-0.32,102.35,76.37,92,1,2.17,light rain,0.25,0.0
162,Ukrayinka,UA,2020-04-19 15:56:23,47.92,35.35,57.2,33,97,8.95,overcast clouds,0.0,0.0
163,Chokurdakh,RU,2020-04-19 15:53:51,70.63,147.92,7.5,95,100,10.13,overcast clouds,0.0,0.0
164,Korla,CN,2020-04-19 15:47:07,41.76,86.15,62.8,24,100,4.38,overcast clouds,0.0,0.0
165,Luganville,VU,2020-04-19 15:53:45,-15.53,167.17,75.2,100,90,1.12,shower rain,0.0,0.0
166,Ahipara,NZ,2020-04-19 15:52:51,-35.17,173.17,61.74,75,100,4.0,light rain,0.18,0.0
167,Mehamn,NO,2020-04-19 15:49:03,71.04,27.85,39.2,93,90,10.29,light intensity drizzle,0.0,0.0
168,Sikasso,ML,2020-04-19 15:56:24,10.92,-7.0,106.65,15,95,2.01,overcast clouds,0.0,0.0
169,Tessalit,ML,2020-04-19 15:56:25,20.2,1.01,104.68,7,77,18.97,broken clouds,0.0,0.0
170,Haines Junction,CA,2020-04-19 15:53:49,60.75,-137.51,39.0,56,100,2.08,overcast clouds,0.0,0.0
171,Pyay,MM,2020-04-19 15:56:25,18.82,95.22,82.58,54,6,5.19,clear sky,0.0,0.0
172,Saint-Pierre,RE,2020-04-19 15:54:40,-21.34,55.48,77.0,78,20,19.46,few clouds,0.0,0.0
173,Fort Nelson,CA,2020-04-19 15:48:56,58.81,-122.7,46.4,52,75,2.24,broken clouds,0.0,0.0
174,Buala,SB,2020-04-19 15:55:02,-8.14,159.59,81.0,80,96,3.69,light rain,0.68,0.0
175,Surt,LY,2020-04-19 15:56:26,31.21,16.59,77.54,27,14,13.38,few clouds,0.0,0.0
176,San Marcos,US,2020-04-19 15:55:24,33.14,-117.17,62.01,71,90,4.7,overcast clouds,0.0,0.0
177,Kadoma,JP,2020-04-19 15:56:27,34.73,135.58,57.99,67,100,5.61,light rain,1.2,0.0
178,Bethel,US,2020-04-19 15:54:28,41.37,-73.41,55.0,43,1,14.99,clear sky,0.0,0.0
179,Melito Di Porto Salvo,IT,2020-04-19 15:56:27,37.92,15.77,66.2,63,30,11.41,scattered clouds,0.0,0.0
180,East London,ZA,2020-04-19 15:54:02,-33.02,27.91,79.93,62,6,21.18,clear sky,0.0,0.0
181,Chilca,PE,2020-04-19 15:56:28,-12.52,-76.74,75.2,64,16,4.7,few clouds,0.0,0.0
182,Cooma,AU,2020-04-19 15:56:28,-36.23,149.13,48.2,61,82,14.99,broken clouds,0.0,0.0
183,Nosy Varika,MG,2020-04-19 15:49:39,-20.58,48.53,75.16,84,23,6.91,light rain,2.37,0.0
184,Cortez,US,2020-04-19 15:56:28,37.35,-108.59,50.0,61,1,3.36,clear sky,0.0,0.0
185,Upernavik,GL,2020-04-19 15:54:29,72.79,-56.15,24.33,87,86,35.1,overcast clouds,0.0,0.0
186,Hofn,IS,2020-04-19 15:56:29,64.25,-15.21,46.4,87,90,8.05,shower rain,0.0,0.0
187,Lobez,PL,2020-04-19 15:56:29,53.64,15.62,51.8,37,0,11.41,clear sky,0.0,0.0
188,Saint-Denis,FR,2020-04-19 15:56:29,48.92,2.33,68.0,52,20,11.41,few clouds,0.0,0.0
189,Luchegorsk,RU,2020-04-19 15:56:29,46.48,134.26,48.38,56,100,7.85,overcast clouds,0.0,0.0
190,Iqaluit,CA,2020-04-19 15:54:44,63.75,-68.51,-4.0,70,5,2.24,clear sky,0.0,0.0
191,Asau,RO,2020-04-19 15:49:44,46.43,26.4,57.2,62,75,6.93,broken clouds,0.0,0.0
192,Nanortalik,GL,2020-04-19 15:53:47,60.14,-45.24,29.48,89,14,14.0,few clouds,0.0,0.0
193,Mamallapuram,IN,2020-04-19 15:56:30,12.63,80.17,86.0,79,20,8.05,few clouds,0.0,0.0
194,Caravelas,BR,2020-04-19 15:51:48,-17.71,-39.25,77.56,80,90,17.6,light rain,0.75,0.0
195,Damara,CF,2020-04-19 15:56:31,4.96,18.7,87.8,62,75,5.82,broken clouds,0.0,0.0
196,Rocha,UY,2020-04-19 15:54:15,-34.48,-54.33,71.83,63,0,8.59,clear sky,0.0,0.0
197,Hennenman,ZA,2020-04-19 15:56:31,-27.98,27.02,75.0,53,0,6.26,clear sky,0.0,0.0
198,San Patricio,MX,2020-04-19 15:50:09,19.22,-104.7,77.0,78,5,3.42,clear sky,0.0,0.0
199,Cavalcante,BR,2020-04-19 15:56:32,-13.8,-47.46,76.82,57,98,6.67,light rain,0.27,0.0
200,Tabuk,PH,2020-04-19 15:56:32,17.42,121.44,76.66,83,100,2.06,light rain,1.84,0.0
201,Muisne,EC,2020-04-19 15:56:32,0.6,-80.03,82.4,83,75,5.82,broken clouds,0.0,0.0
202,Xam Nua,LA,2020-04-19 15:56:32,20.42,104.04,73.04,43,49,2.44,scattered clouds,0.0,0.0
203,Dunstable,GB,2020-04-19 15:56:33,51.89,-0.52,61.0,38,0,14.99,clear sky,0.0,0.0
204,Manta,EC,2020-04-19 15:46:55,-0.95,-80.73,82.4,69,75,4.7,broken clouds,0.0,0.0
205,Santo Domingo,DO,2020-04-19 15:54:21,18.5,-69.99,87.8,62,40,11.41,scattered clouds,0.0,0.0
206,Anadyr,RU,2020-04-19 15:54:50,64.75,177.48,15.8,85,40,2.24,light snow,0.0,0.0
207,Mizdah,LY,2020-04-19 15:56:34,31.45,12.98,91.13,13,100,18.05,overcast clouds,0.0,0.0
208,Aguimes,ES,2020-04-19 15:49:08,27.91,-15.45,73.4,53,20,26.4,few clouds,0.0,0.0
209,Doaba,PK,2020-04-19 15:56:34,33.42,70.74,70.29,37,99,2.35,light rain,0.44,0.0
210,Mahebourg,MU,2020-04-19 15:53:58,-20.41,57.7,78.01,73,40,11.41,scattered clouds,0.0,0.0
211,Muroto,JP,2020-04-19 15:56:34,33.28,134.15,59.54,85,100,14.07,moderate rain,3.46,0.0
212,Bokoro,TD,2020-04-19 15:56:35,12.38,17.06,107.42,6,43,6.55,scattered clouds,0.0,0.0
213,Itaituba,BR,2020-04-19 15:53:57,-4.28,-55.98,82.4,83,75,6.93,shower rain,0.0,0.0
214,Umm Kaddadah,SD,2020-04-19 15:54:34,13.6,26.69,97.86,7,0,11.45,clear sky,0.0,0.0
215,Saint-Philippe,RE,2020-04-19 15:52:55,-21.36,55.77,77.0,78,20,19.46,few clouds,0.0,0.0
216,Qasigiannguit,GL,2020-04-19 15:56:35,68.82,-51.19,28.4,50,10,16.11,clear sky,0.0,0.0
217,Port Elizabeth,ZA,2020-04-19 15:54:05,-33.92,25.57,78.8,57,0,6.93,clear sky,0.0,0.0
218,Marawi,PH,2020-04-19 15:56:36,8.0,124.29,69.85,73,98,2.51,overcast clouds,0.0,0.0
219,Lompoc,US,2020-04-19 15:49:20,34.64,-120.46,53.6,87,1,3.36,clear sky,0.0,0.0
220,Barrow,US,2020-04-19 15:54:22,71.29,-156.79,8.6,78,90,3.36,light snow,0.0,0.0
221,Skovorodino,RU,2020-04-19 15:56:36,53.98,123.92,16.99,85,5,7.0,clear sky,0.0,0.0
222,Ewo,CG,2020-04-19 15:56:37,-0.87,14.82,85.44,51,69,1.21,broken clouds,0.0,0.0
223,Am Timan,TD,2020-04-19 15:56:37,11.03,20.28,105.42,6,32,7.4,scattered clouds,0.0,0.0
224,Karratha,AU,2020-04-19 15:53:46,-20.74,116.85,83.7,61,99,8.1,overcast clouds,0.0,0.0
225,Dikson,RU,2020-04-19 15:54:15,73.51,80.55,35.98,92,100,23.87,light rain,0.54,0.0
226,Merrill,US,2020-04-19 15:56:37,45.18,-89.68,41.0,48,75,9.17,broken clouds,0.0,0.0
227,Aklavik,CA,2020-04-19 15:54:34,68.22,-135.01,14.0,51,75,6.93,broken clouds,0.0,0.0
228,Abu Samrah,SY,2020-04-19 15:56:38,35.3,37.18,79.81,23,50,5.84,scattered clouds,0.0,0.0
229,Atid,RO,2020-04-19 15:56:38,46.45,25.05,57.2,71,20,9.17,few clouds,0.0,0.0
230,Valparaiso,CL,2020-04-19 15:56:38,-33.04,-71.63,77.0,57,0,6.93,clear sky,0.0,0.0
231,La Ronge,CA,2020-04-19 15:54:04,55.1,-105.28,41.0,52,40,24.16,scattered clouds,0.0,0.0
232,Saskylakh,RU,2020-04-19 15:51:50,71.92,114.08,17.65,92,0,7.9,clear sky,0.0,0.0
233,Bugojno,BA,2020-04-19 15:56:39,44.06,17.45,68.34,44,100,5.91,light rain,0.2,0.0
234,Chapleau,CA,2020-04-19 15:56:39,47.84,-83.4,17.6,72,75,9.17,light snow,0.0,0.0
235,Shache,CN,2020-04-19 15:56:39,38.42,77.24,61.74,33,100,10.85,overcast clouds,0.0,0.0
236,Methoni,GR,2020-04-19 15:56:40,36.82,21.7,70.0,60,2,8.03,clear sky,0.0,0.0
237,Pindiga,NG,2020-04-19 15:56:40,9.98,10.93,99.68,14,34,2.8,scattered clouds,0.0,0.0
238,Mama,RU,2020-04-19 15:56:40,58.31,112.9,17.17,88,52,3.29,broken clouds,0.0,0.0
239,Altamira,BR,2020-04-19 15:53:35,-3.2,-52.21,78.8,94,75,2.24,light rain,0.0,0.0
240,Sinop,TR,2020-04-19 15:56:41,41.77,34.87,57.78,47,14,7.31,few clouds,0.0,0.0
241,Sao Felix Do Xingu,BR,2020-04-19 15:56:41,-6.64,-51.99,80.46,75,92,1.77,light rain,2.53,0.0
242,Kodinsk,RU,2020-04-19 15:56:41,58.69,99.18,26.42,90,0,4.88,clear sky,0.0,0.0
243,Yar-Sale,RU,2020-04-19 15:56:41,66.83,70.83,34.12,98,100,10.29,overcast clouds,0.0,0.0
244,Omsukchan,RU,2020-04-19 15:50:10,62.53,155.8,-3.32,82,100,4.76,overcast clouds,0.0,0.0
245,Lavrentiya,RU,2020-04-19 15:50:00,65.58,-171.0,15.03,94,100,8.7,overcast clouds,0.0,0.0
246,Nome,US,2020-04-19 15:56:42,64.5,-165.41,33.8,100,90,2.01,overcast clouds,0.0,0.0
247,Kieta,PG,2020-04-19 15:56:42,-6.22,155.63,79.83,76,100,0.96,light rain,1.36,0.0
248,Miles City,US,2020-04-19 15:56:42,46.41,-105.84,42.01,69,90,8.05,overcast clouds,0.0,0.0
249,Fort Saint James,CA,2020-04-19 15:56:43,54.43,-124.25,38.12,69,5,0.29,clear sky,0.0,0.0
250,Axim,GH,2020-04-19 15:54:38,4.87,-2.24,87.39,63,36,12.03,light rain,0.17,0.0
251,Vrangel,RU,2020-04-19 15:56:44,42.73,133.08,41.97,82,100,15.21,overcast clouds,0.0,0.0
252,Nuevo Casas Grandes,MX,2020-04-19 15:56:44,30.42,-107.92,56.62,20,0,4.61,clear sky,0.0,0.0
253,Galesong,ID,2020-04-19 15:56:44,-5.32,119.37,77.0,94,20,3.36,few clouds,0.0,0.0
254,Morondava,MG,2020-04-19 15:54:11,-20.28,44.28,82.36,69,0,8.75,clear sky,0.0,0.0
255,Kibala,TD,2020-04-19 15:56:45,9.11,18.35,102.2,24,20,6.93,few clouds,0.0,0.0
256,Gidam,IN,2020-04-19 15:56:45,18.98,81.4,80.83,38,45,5.86,light rain,0.19,0.0
257,Urumqi,CN,2020-04-19 15:48:53,43.8,87.6,64.4,34,32,2.24,scattered clouds,0.0,0.0
258,Nanyamba,TZ,2020-04-19 15:56:46,-10.68,39.83,82.4,83,75,9.17,broken clouds,0.0,0.0
259,Rassvet,RU,2020-04-19 15:56:46,46.83,40.75,57.81,51,100,4.09,overcast clouds,0.0,0.0
260,Tura,IN,2020-04-19 15:49:06,25.52,90.22,73.35,71,0,3.09,light rain,0.67,0.0
261,Antofagasta,CL,2020-04-19 15:53:52,-23.65,-70.4,66.2,68,40,3.36,scattered clouds,0.0,0.0
262,Winsum,NL,2020-04-19 15:56:46,53.33,6.52,61.0,36,0,1.01,clear sky,0.0,0.0
263,Ansbach,DE,2020-04-19 15:53:49,49.3,10.58,62.6,63,20,12.75,few clouds,0.0,0.0
264,Jumla,NP,2020-04-19 15:56:47,29.27,82.18,48.11,34,98,1.99,light rain,0.77,0.0
265,Fortuna,US,2020-04-19 15:54:16,40.6,-124.16,52.0,100,90,3.0,overcast clouds,0.0,0.0
266,Nouakchott,MR,2020-04-19 15:56:47,18.09,-15.98,78.8,47,0,20.8,sand,0.0,0.0
267,Pathein,MM,2020-04-19 15:56:48,16.78,94.73,77.36,84,4,5.79,clear sky,0.0,0.0
268,Palana,RU,2020-04-19 15:56:48,59.12,159.97,11.1,94,100,2.17,light snow,0.0,0.14
269,Baruun-Urt,MN,2020-04-19 15:56:48,46.68,113.28,30.51,59,100,13.04,light snow,0.0,0.75
270,Ossora,RU,2020-04-19 15:56:49,59.24,163.07,15.76,92,100,8.68,overcast clouds,0.0,0.0
271,Carlagan,PH,2020-04-19 15:56:50,14.97,122.05,80.67,84,66,7.78,broken clouds,0.0,0.0
272,Ancud,CL,2020-04-19 15:54:52,-41.87,-73.82,50.0,93,90,6.93,overcast clouds,0.0,0.0
273,Piacabucu,BR,2020-04-19 15:56:50,-10.41,-36.43,83.71,72,33,8.61,light rain,0.93,0.0
274,Rawson,AR,2020-04-19 15:48:53,-43.3,-65.1,62.56,32,91,19.22,overcast clouds,0.0,0.0
275,San Vicente,AR,2020-04-19 15:56:51,-26.62,-54.13,77.47,38,0,4.23,clear sky,0.0,0.0
276,Laguna,US,2020-04-19 15:50:03,38.42,-121.42,55.99,81,90,3.36,overcast clouds,0.0,0.0
277,Dali,CN,2020-04-19 15:56:51,25.7,100.18,56.52,30,0,5.08,clear sky,0.0,0.0
278,Laukaa,RU,2020-04-19 15:56:51,58.74,29.85,41.92,65,92,8.61,light rain,0.17,0.0
279,Port Hedland,AU,2020-04-19 15:48:53,-20.32,118.57,80.6,83,95,1.12,overcast clouds,0.0,0.0
280,Uige,AO,2020-04-19 15:56:52,-7.61,15.06,69.8,94,75,6.93,thunderstorm,0.0,0.0
281,Bahia Honda,CU,2020-04-19 15:56:52,22.9,-83.16,86.76,56,1,6.02,clear sky,0.0,0.0
282,Dasoguz,TM,2020-04-19 15:56:52,41.84,59.97,78.8,22,14,6.93,few clouds,0.0,0.0
283,Sirjan,IR,2020-04-19 15:56:53,29.45,55.68,65.48,26,100,7.31,overcast clouds,0.0,0.0
284,Puntarenas,CR,2020-04-19 15:56:53,9.98,-84.84,82.4,45,20,9.17,few clouds,0.0,0.0
285,Vila Velha,BR,2020-04-19 15:52:50,-20.33,-40.29,80.6,61,20,13.87,few clouds,0.0,0.0
286,Broome,US,2020-04-19 15:56:53,42.25,-75.83,50.0,56,1,14.99,clear sky,0.0,0.0
287,Mackay,AU,2020-04-19 15:54:51,-21.15,149.2,73.0,94,40,4.7,scattered clouds,0.0,0.0
288,Miri,MY,2020-04-19 15:56:54,4.41,114.01,82.4,94,75,2.24,broken clouds,0.0,0.0
289,Ovalle,CL,2020-04-19 15:54:37,-30.6,-71.2,80.82,30,1,5.44,clear sky,0.0,0.0
290,Leshukonskoye,RU,2020-04-19 15:56:54,64.9,45.76,34.32,96,100,3.31,light snow,0.0,0.19
291,Mendoza,AR,2020-04-19 15:55:14,-32.89,-68.83,73.4,46,0,6.93,clear sky,0.0,0.0
292,Leesburg,US,2020-04-19 15:56:55,39.12,-77.56,57.0,51,1,9.17,clear sky,0.0,0.0
293,Vostok,RU,2020-04-19 15:56:55,46.49,135.88,35.01,63,100,5.08,overcast clouds,0.0,0.0
294,Ilulissat,GL,2020-04-19 15:54:36,69.22,-51.1,28.4,50,19,16.11,few clouds,0.0,0.0
295,Mormugao,IN,2020-04-19 15:56:56,15.4,73.8,87.8,70,20,9.17,few clouds,0.0,0.0
296,Mitsamiouli,KM,2020-04-19 15:56:56,-11.38,43.28,83.46,77,77,20.78,light rain,1.79,0.0
297,Le Pont-De-Claix,FR,2020-04-19 15:56:56,45.12,5.71,64.0,77,90,3.36,overcast clouds,0.0,0.0
298,Pila,PL,2020-04-19 15:56:56,53.15,16.74,53.67,41,0,10.22,clear sky,0.0,0.0
299,Okoneshnikovo,RU,2020-04-19 15:56:56,54.84,75.08,59.14,50,67,3.18,broken clouds,0.0,0.0
300,Mier,MX,2020-04-19 15:56:57,26.43,-99.15,86.0,100,90,8.05,mist,0.0,0.0
301,Nyurba,RU,2020-04-19 15:56:57,63.28,118.33,12.88,94,33,3.49,scattered clouds,0.0,0.0
302,Okha,RU,2020-04-19 15:56:57,53.57,142.95,27.68,98,100,17.81,light snow,0.0,0.45
303,Mandera,KE,2020-04-19 15:56:57,3.94,41.87,90.16,46,100,12.55,light rain,0.7,0.0
304,Qaqortoq,GL,2020-04-19 15:54:57,60.72,-46.03,32.0,88,1,4.7,clear sky,0.0,0.0
305,Luderitz,NA,2020-04-19 15:54:08,-26.65,15.16,73.4,56,0,10.29,clear sky,0.0,0.0
306,Kamuli,UG,2020-04-19 15:56:58,0.95,33.12,69.46,68,79,4.79,light rain,2.18,0.0
307,Sungurlu,TR,2020-04-19 15:56:58,40.17,34.37,67.78,21,18,3.76,few clouds,0.0,0.0
308,Mercedes,AR,2020-04-19 15:56:12,-34.65,-59.43,80.01,21,3,5.01,clear sky,0.0,0.0
309,Sobolevo,RU,2020-04-19 15:48:13,54.43,31.9,43.02,58,93,9.86,light rain,0.55,0.0
310,Pobe,BJ,2020-04-19 15:56:59,6.98,2.66,89.1,52,100,10.87,light rain,0.2,0.0
311,Port Hardy,CA,2020-04-19 15:54:47,50.7,-127.42,46.4,93,90,4.7,overcast clouds,0.0,0.0
312,Avera,US,2020-04-19 15:56:59,33.19,-82.53,50.0,83,90,5.82,heavy intensity rain,0.0,0.0
313,Peniche,PT,2020-04-19 15:54:49,39.36,-9.38,62.01,75,1,8.01,clear sky,0.0,0.0
314,Bam,IR,2020-04-19 15:57:00,29.11,58.36,75.51,25,100,3.24,overcast clouds,0.0,0.0
315,Tchollire,CM,2020-04-19 15:57:00,8.4,14.17,102.65,17,92,2.15,overcast clouds,0.0,0.0
316,San Quintin,MX,2020-04-19 15:53:56,30.48,-115.95,59.97,74,98,12.66,overcast clouds,0.0,0.0
317,Staraya Mayna,RU,2020-04-19 15:57:00,54.6,48.95,48.2,45,69,6.71,broken clouds,0.0,0.0
318,Thinadhoo,MV,2020-04-19 15:55:01,0.53,72.93,85.14,76,64,11.72,broken clouds,0.0,0.0
319,Suluq,LY,2020-04-19 15:57:01,31.67,20.25,74.19,26,1,8.88,clear sky,0.0,0.0
320,Izhmorskiy,RU,2020-04-19 15:57:01,56.19,86.64,46.44,54,29,9.98,scattered clouds,0.0,0.0
321,Praia Da Vitoria,PT,2020-04-19 15:57:01,38.73,-27.07,64.4,55,20,31.97,few clouds,0.0,0.0
322,Kyabe,TD,2020-04-19 15:57:02,9.45,18.94,105.67,13,13,3.06,few clouds,0.0,0.0
323,Kahului,US,2020-04-19 15:54:32,20.89,-156.47,68.0,82,1,9.44,clear sky,0.0,0.0
324,Cilegon,ID,2020-04-19 15:57:02,-6.02,106.05,84.2,79,20,3.36,haze,0.0,0.0
325,Jimeta,NG,2020-04-19 15:57:02,9.28,12.47,106.25,15,86,7.09,overcast clouds,0.0,0.0
326,Cuenca,EC,2020-04-19 15:52:18,-2.88,-78.98,57.2,93,90,3.36,shower rain,0.0,0.0
327,Aquiraz,BR,2020-04-19 15:57:03,-3.9,-38.39,87.8,62,75,4.7,broken clouds,0.0,0.0
328,Concordia,AR,2020-04-19 15:57:03,-31.39,-58.02,75.2,60,0,6.93,clear sky,0.0,0.0
329,Gizo,SB,2020-04-19 15:49:47,-8.1,156.84,81.57,75,98,2.44,light rain,0.33,0.0
330,Tiarei,PF,2020-04-19 15:57:03,-17.53,-149.33,78.8,78,75,3.36,broken clouds,0.0,0.0
331,Muskogee,US,2020-04-19 15:57:03,35.58,-95.33,57.2,82,90,4.7,overcast clouds,0.0,0.0
332,Ikom,NG,2020-04-19 15:57:04,5.97,8.71,88.88,60,100,4.38,light rain,1.11,0.0
333,Fort-Shevchenko,KZ,2020-04-19 15:57:04,44.51,50.26,57.25,61,100,16.15,overcast clouds,0.0,0.0
334,Kathmandu,NP,2020-04-19 15:55:32,27.72,85.32,60.8,72,75,7.65,broken clouds,0.0,0.0
335,Kincardine,GB,2020-04-19 15:57:05,56.07,-3.72,60.01,54,0,11.99,clear sky,0.0,0.0
336,Paratinga,BR,2020-04-19 15:57:05,-12.69,-43.18,80.6,74,66,8.05,light rain,0.11,0.0
337,Nishihara,JP,2020-04-19 15:54:45,26.18,127.76,75.2,88,90,12.75,overcast clouds,0.0,0.0
338,Carndonagh,IE,2020-04-19 15:57:05,55.25,-7.27,55.4,66,75,11.41,broken clouds,0.0,0.0
339,Airai,TL,2020-04-19 15:54:20,-8.93,125.41,61.09,65,27,2.48,scattered clouds,0.0,0.0
340,Lisakovsk,KZ,2020-04-19 15:57:06,52.54,62.49,50.52,54,41,5.91,scattered clouds,0.0,0.0
341,Dunn,US,2020-04-19 15:57:06,44.95,-91.88,43.0,41,1,9.17,clear sky,0.0,0.0
342,Dakar,SN,2020-04-19 15:55:13,14.69,-17.44,82.4,73,10,21.92,clear sky,0.0,0.0
343,Saint Joseph,US,2020-04-19 15:54:12,39.77,-94.85,57.99,47,1,9.17,clear sky,0.0,0.0
344,Sao Filipe,CV,2020-04-19 15:47:01,14.9,-24.5,73.04,70,24,20.47,few clouds,0.0,0.0
345,Rey Bouba,CM,2020-04-19 15:57:07,8.67,14.18,105.84,15,91,1.43,overcast clouds,0.0,0.0
346,Muncar,ID,2020-04-19 15:57:07,-8.43,114.33,80.49,79,100,4.03,light rain,1.34,0.0
347,Nyrob,RU,2020-04-19 15:57:08,60.73,56.72,36.5,85,80,3.85,light rain,0.18,0.0
348,Waingapu,ID,2020-04-19 15:57:08,-9.66,120.26,79.02,79,93,4.9,overcast clouds,0.0,0.0
349,Ishigaki,JP,2020-04-19 15:54:12,24.34,124.16,76.77,89,45,17.11,scattered clouds,0.0,0.0
350,Dunedin,NZ,2020-04-19 15:50:15,-45.87,170.5,50.0,60,2,11.54,clear sky,0.0,0.0
351,Lewistown,US,2020-04-19 15:57:09,40.6,-77.57,55.99,53,50,1.01,scattered clouds,0.0,0.0
352,Saint George,US,2020-04-19 15:54:00,37.1,-113.58,59.0,62,1,2.15,clear sky,0.0,0.0
353,Steamboat Springs,US,2020-04-19 15:57:09,40.48,-106.83,37.99,100,90,2.19,overcast clouds,0.0,0.0
354,Rundu,NA,2020-04-19 15:57:10,-17.93,19.77,73.4,73,100,4.7,overcast clouds,0.0,0.0
355,Arlit,NE,2020-04-19 15:54:09,18.74,7.39,106.09,6,9,5.68,clear sky,0.0,0.0
356,Uyemskiy,RU,2020-04-19 15:57:10,64.47,40.85,33.8,93,90,8.95,overcast clouds,0.0,0.0
357,Livingston,GB,2020-04-19 15:57:10,55.9,-3.52,57.0,71,0,18.34,clear sky,0.0,0.0
358,Suntar,RU,2020-04-19 15:54:48,62.14,117.63,16.0,94,91,3.87,overcast clouds,0.0,0.0
359,Biak,ID,2020-04-19 15:57:11,-0.91,122.88,81.18,73,14,1.32,light rain,2.38,0.0
360,Cockburn Town,TC,2020-04-19 15:46:49,21.46,-71.14,78.12,80,18,13.2,few clouds,0.0,0.0
361,Makakilo City,US,2020-04-19 15:55:46,21.35,-158.09,68.0,100,1,3.98,clear sky,0.0,0.0
362,Cherskiy,RU,2020-04-19 15:54:47,68.75,161.3,-3.26,92,99,7.85,overcast clouds,0.0,0.0
363,Ler,SS,2020-04-19 15:57:12,8.3,30.14,100.74,9,76,6.15,broken clouds,0.0,0.0
364,Chapais,CA,2020-04-19 15:54:01,49.78,-74.85,21.2,85,90,13.87,light snow,0.0,0.0
365,Svetlogorsk,BY,2020-04-19 15:57:12,52.63,29.73,45.99,51,96,10.42,light rain,0.31,0.0
366,Zheleznodorozhnyy,RU,2020-04-19 15:57:12,55.75,38.0,41.0,80,75,8.95,broken clouds,0.0,0.0
367,Dalgopol,BG,2020-04-19 15:57:13,43.05,27.35,69.01,45,20,8.05,few clouds,0.0,0.0
368,Itarema,BR,2020-04-19 15:50:01,-2.92,-39.92,87.8,74,40,3.36,scattered clouds,0.0,0.0
369,Boa Vista,BR,2020-04-19 15:57:13,2.82,-60.67,89.6,49,75,2.24,broken clouds,0.0,0.0
370,Sao Joao Evangelista,BR,2020-04-19 15:57:13,-18.55,-42.76,70.92,64,95,3.13,overcast clouds,0.0,0.0
371,Acapulco,MX,2020-04-19 15:57:14,16.86,-99.89,82.4,61,75,2.24,broken clouds,0.0,0.0
372,Kuragino,RU,2020-04-19 15:57:14,53.9,92.67,47.44,45,0,7.72,clear sky,0.0,0.0
373,Chernyshevskiy,RU,2020-04-19 15:57:14,63.01,112.47,12.72,92,78,3.67,broken clouds,0.0,0.0
374,Zhigansk,RU,2020-04-19 15:57:15,66.77,123.37,12.47,94,75,8.68,broken clouds,0.0,0.0
375,Serenje,ZM,2020-04-19 15:57:15,-13.23,30.24,66.61,54,52,9.19,light rain,0.23,0.0
376,Machacamarca,BO,2020-04-19 15:57:15,-18.17,-67.03,53.17,13,0,2.28,clear sky,0.0,0.0
377,Xinzhi,CN,2020-04-19 15:57:15,36.5,111.7,59.13,31,93,13.42,overcast clouds,0.0,0.0
378,Calabozo,VE,2020-04-19 15:57:16,8.92,-67.43,79.93,63,99,5.64,light rain,1.13,0.0
379,Torbay,CA,2020-04-19 15:54:31,47.67,-52.73,30.99,92,90,26.4,snow,0.0,0.0
380,Honiara,SB,2020-04-19 15:57:16,-9.43,159.95,77.0,100,20,1.36,few clouds,0.0,0.0
381,Seoul,KR,2020-04-19 15:53:19,37.57,126.98,50.0,87,90,4.7,overcast clouds,0.0,0.0
382,Kafanchan,NG,2020-04-19 15:57:17,9.58,8.3,94.48,21,52,4.81,broken clouds,0.0,0.0
383,Saint-Georges,GD,2020-04-19 15:57:17,12.06,-61.75,86.0,66,75,20.8,broken clouds,0.0,0.0
384,Jiancheng,CN,2020-04-19 15:57:17,30.39,104.55,68.0,93,40,6.29,light intensity shower rain,0.0,0.0
385,Makhinjauri,GE,2020-04-19 15:57:17,41.67,41.69,57.2,82,52,4.7,light rain,0.14,0.0
386,Fukue,JP,2020-04-19 15:48:56,32.69,128.84,62.73,84,95,32.03,light rain,1.22,0.0
387,Hailar,CN,2020-04-19 15:57:18,49.2,119.7,32.68,59,100,19.04,overcast clouds,0.0,0.0
388,Mehtar Lam,AF,2020-04-19 15:57:18,34.67,70.21,71.6,43,40,3.36,scattered clouds,0.0,0.0
389,Benguela,AO,2020-04-19 15:57:18,-12.58,13.41,84.2,79,75,4.7,broken clouds,0.0,0.0
390,Xai-Xai,MZ,2020-04-19 15:57:19,-25.05,33.64,74.71,74,12,10.56,light rain,0.27,0.0
391,Cabra,ES,2020-04-19 15:57:19,37.47,-4.44,69.8,56,94,3.36,light rain,1.74,0.0
392,Katsuura,JP,2020-04-19 15:54:40,35.13,140.3,57.04,75,96,15.39,overcast clouds,0.0,0.0
393,Auxerre,FR,2020-04-19 15:56:54,47.8,3.57,68.0,60,97,11.01,light rain,0.77,0.0
394,Champagnole,FR,2020-04-19 15:57:19,46.74,5.91,63.0,74,100,1.01,light rain,1.24,0.0
395,Codrington,AU,2020-04-19 15:57:20,-38.27,141.97,57.7,77,100,22.68,light rain,2.23,0.0
396,Banda Aceh,ID,2020-04-19 15:57:20,5.56,95.32,80.91,80,100,4.09,overcast clouds,0.0,0.0
397,Malartic,CA,2020-04-19 15:57:20,48.13,-78.13,23.0,79,90,12.75,light shower snow,0.0,0.0
398,Rupert,US,2020-04-19 15:57:20,42.62,-113.68,51.8,43,1,6.93,clear sky,0.0,0.0
399,Namibe,AO,2020-04-19 15:57:20,-15.2,12.15,80.6,65,20,17.22,few clouds,0.0,0.0
400,Xiashi,CN,2020-04-19 15:57:21,30.54,120.69,61.0,74,94,6.85,overcast clouds,0.0,0.0
401,Davenda,RU,2020-04-19 15:57:21,53.56,119.32,16.68,80,83,8.5,broken clouds,0.0,0.0
402,Boca Do Acre,BR,2020-04-19 15:57:21,-8.75,-67.4,84.7,50,68,4.21,broken clouds,0.0,0.0
403,Kijang,KR,2020-04-19 15:49:32,35.24,129.21,53.6,81,75,11.41,broken clouds,0.0,0.0
404,Katete,UG,2020-04-19 15:57:21,-0.78,29.75,70.54,53,66,2.21,light rain,0.76,0.0
405,Lethem,GY,2020-04-19 15:57:22,3.38,-59.8,91.81,42,33,2.62,scattered clouds,0.0,0.0
406,Margate,GB,2020-04-19 15:50:07,51.38,1.39,49.33,75,0,21.61,clear sky,0.0,0.0
407,Pavilosta,LV,2020-04-19 15:57:22,56.89,21.19,44.6,65,4,10.29,clear sky,0.0,0.0
408,Havre-Saint-Pierre,CA,2020-04-19 15:54:39,50.23,-63.6,33.8,64,1,16.11,clear sky,0.0,0.0
409,Sabha,LY,2020-04-19 15:57:23,27.04,14.43,95.65,10,100,11.41,overcast clouds,0.0,0.0
410,Pontianak,ID,2020-04-19 15:57:23,-0.03,109.33,79.11,84,63,2.28,broken clouds,0.0,0.0
411,Sarlat-La-Caneda,FR,2020-04-19 15:57:23,44.89,1.22,64.99,80,100,2.42,light rain,0.46,0.0
412,Ca Mau,VN,2020-04-19 15:54:39,9.18,105.15,81.73,76,54,5.3,broken clouds,0.0,0.0
413,Guerrero Negro,MX,2020-04-19 15:48:01,27.98,-114.06,61.14,72,38,15.61,scattered clouds,0.0,0.0
414,Minyar,RU,2020-04-19 15:57:24,55.07,57.55,41.74,69,64,3.89,light rain,0.53,0.0
415,Huarmey,PE,2020-04-19 15:57:24,-10.07,-78.15,77.45,63,10,7.43,clear sky,0.0,0.0
416,Lensk,RU,2020-04-19 15:57:24,60.73,114.93,16.61,92,93,2.55,overcast clouds,0.0,0.0
417,Port Lincoln,AU,2020-04-19 15:57:24,-34.73,135.87,64.74,79,100,23.11,overcast clouds,0.0,0.0
418,Erenhot,CN,2020-04-19 15:54:52,43.65,111.98,39.06,42,28,15.26,scattered clouds,0.0,0.0
419,Dongsheng,CN,2020-04-19 15:57:25,39.82,109.98,38.79,35,0,12.84,clear sky,0.0,0.0
420,Tubli,PH,2020-04-19 15:57:25,13.93,124.15,81.72,79,69,12.15,broken clouds,0.0,0.0
421,Mwandiga,TZ,2020-04-19 15:57:25,-4.83,29.66,78.8,69,40,3.49,scattered clouds,0.0,0.0
422,Dingle,PH,2020-04-19 15:49:31,11.0,122.67,81.39,72,94,9.86,overcast clouds,0.0,0.0
423,Searcy,US,2020-04-19 15:57:26,35.25,-91.74,53.6,93,90,8.05,overcast clouds,0.0,0.0
424,Poronaysk,RU,2020-04-19 15:57:26,49.22,143.12,31.78,97,97,5.32,overcast clouds,0.0,0.0
425,Aban,RU,2020-04-19 15:57:26,56.67,96.06,33.98,70,0,10.36,clear sky,0.0,0.0
426,Cape Coast,GH,2020-04-19 15:57:26,5.11,-1.25,86.45,69,83,15.32,light rain,0.99,0.0
427,Tilichiki,RU,2020-04-19 15:54:28,60.47,166.1,4.77,90,42,9.62,scattered clouds,0.0,0.0
428,Itirapina,BR,2020-04-19 15:57:27,-22.25,-47.82,71.6,68,33,4.7,scattered clouds,0.0,0.0
429,Newcastleton,GB,2020-04-19 15:57:27,55.18,-2.81,55.4,50,0,17.22,clear sky,0.0,0.0
430,Araouane,ML,2020-04-19 15:57:27,18.9,-3.53,97.74,20,2,12.5,clear sky,0.0,0.0
431,Ures,MX,2020-04-19 15:57:28,29.43,-110.4,70.0,37,50,3.0,scattered clouds,0.0,0.0
432,Yekaterinoslavka,RU,2020-04-19 15:57:28,50.37,129.11,33.31,84,100,15.46,light snow,0.0,0.51
433,Tselinnoye,RU,2020-04-19 15:57:29,53.08,85.67,52.05,54,0,2.53,clear sky,0.0,0.0
434,Bengkulu,ID,2020-04-19 15:47:21,-3.8,102.27,79.59,80,100,3.02,light rain,1.2,0.0
435,Abay,KZ,2020-04-19 15:57:29,49.63,72.85,55.4,58,30,4.47,scattered clouds,0.0,0.0
436,Mahibadhoo,MV,2020-04-19 15:57:17,3.78,72.97,85.53,75,42,11.34,light rain,0.17,0.0
437,Abeche,TD,2020-04-19 15:57:30,13.83,20.83,104.0,6,91,10.25,overcast clouds,0.0,0.0
438,San Luis,AR,2020-04-19 15:54:38,-33.3,-66.34,76.89,29,0,7.14,clear sky,0.0,0.0
439,Kirkenes,NO,2020-04-19 15:57:30,69.73,30.05,37.4,74,40,11.41,scattered clouds,0.0,0.0
440,Sandovo,RU,2020-04-19 15:57:30,58.46,36.41,41.5,63,46,7.47,scattered clouds,0.0,0.0
441,Whitehorse,CA,2020-04-19 15:52:33,60.72,-135.05,36.0,55,90,5.82,overcast clouds,0.0,0.0
442,Mecca,SA,2020-04-19 15:45:25,21.43,39.83,86.49,46,81,16.13,broken clouds,0.0,0.0
443,Stokmarknes,NO,2020-04-19 15:57:31,68.56,14.91,41.0,86,100,5.99,overcast clouds,0.0,0.0
444,Neuquen,AR,2020-04-19 15:57:31,-38.95,-68.06,69.8,30,59,9.17,broken clouds,0.0,0.0
445,Rajur,IN,2020-04-19 15:57:31,20.12,78.92,95.07,21,94,2.84,overcast clouds,0.0,0.0
446,Lakota,CI,2020-04-19 15:57:32,5.85,-5.69,87.57,64,96,5.64,light rain,1.38,0.0
447,Carutapera,BR,2020-04-19 15:57:32,-1.2,-46.02,85.32,66,85,2.71,light rain,2.38,0.0
448,Cordoba,AR,2020-04-19 15:57:32,-31.41,-64.18,84.2,30,0,5.82,clear sky,0.0,0.0
449,Ayan,RU,2020-04-19 15:49:30,56.45,138.17,19.06,95,100,9.69,light snow,0.0,0.67
450,Gemena,CD,2020-04-19 15:57:33,3.25,19.77,81.84,57,94,1.39,overcast clouds,0.0,0.0
451,Bandarbeyla,SO,2020-04-19 15:48:09,9.49,50.81,83.39,65,32,13.35,scattered clouds,0.0,0.0
452,Tommot,RU,2020-04-19 15:57:33,58.96,126.29,12.25,90,98,4.43,overcast clouds,0.0,0.0
453,Oneonta,US,2020-04-19 15:57:33,42.45,-75.06,50.0,57,0,7.0,clear sky,0.0,0.0
454,Pointe-Noire,CG,2020-04-19 15:57:34,-4.78,11.86,86.0,74,20,9.17,few clouds,0.0,0.0
455,Meadow Lake,US,2020-04-19 15:54:39,34.8,-106.54,61.0,40,20,12.68,few clouds,0.0,0.0
456,Yaan,NG,2020-04-19 15:49:17,7.38,8.57,93.06,44,96,6.89,overcast clouds,0.0,0.0
457,Binidayan,PH,2020-04-19 15:57:34,7.81,124.17,71.71,72,99,0.78,overcast clouds,0.0,0.0
458,Navahrudak,BY,2020-04-19 15:57:35,53.6,25.83,43.88,53,68,12.1,light rain,0.24,0.0
459,Sanandrei,RO,2020-04-19 15:57:35,45.85,21.17,71.01,39,83,21.92,light rain,1.93,0.0
460,Sola,VU,2020-04-19 15:53:45,-13.88,167.55,77.0,94,20,4.43,few clouds,0.0,0.0
461,Los Llanos De Aridane,ES,2020-04-19 15:49:36,28.66,-17.92,69.8,60,75,12.75,broken clouds,0.0,0.0
462,Jayanca,PE,2020-04-19 15:57:36,-6.39,-79.82,80.6,57,0,11.41,clear sky,0.0,0.0
463,Riyadh,SA,2020-04-19 15:48:25,24.69,46.72,84.2,28,100,9.17,dust,0.0,0.0
464,Tazovskiy,RU,2020-04-19 15:57:36,67.47,78.7,36.01,98,100,11.18,overcast clouds,0.0,0.0
465,Byron Bay,AU,2020-04-19 15:57:37,-28.65,153.62,63.0,93,0,6.93,clear sky,0.0,0.0
466,Cap Malheureux,MU,2020-04-19 15:54:14,-19.98,57.61,77.0,73,40,11.41,scattered clouds,0.0,0.0
467,Pierre,US,2020-04-19 15:54:37,44.37,-100.35,43.0,48,90,3.36,overcast clouds,0.0,0.0
468,Argostolion,GR,2020-04-19 15:57:37,38.18,20.49,71.6,56,46,9.17,scattered clouds,0.0,0.0
469,Santa Marta De Tormes,ES,2020-04-19 15:57:37,40.95,-5.63,64.0,62,20,9.17,few clouds,0.0,0.0
470,Noyabrsk,RU,2020-04-19 15:57:38,63.2,75.45,40.12,88,100,9.51,light rain,2.08,0.0
471,Cuxhaven,DE,2020-04-19 15:57:38,53.87,8.69,55.4,26,0,20.8,clear sky,0.0,0.0
472,Vardo,NO,2020-04-19 15:49:50,70.37,31.11,37.4,83,75,6.93,broken clouds,0.0,0.0
473,Xinqing,CN,2020-04-19 15:57:38,48.23,129.5,49.77,45,100,0.89,overcast clouds,0.0,0.0
474,Sfantu Gheorghe,RO,2020-04-19 15:57:38,45.87,25.78,57.0,76,96,1.99,light rain,1.77,0.0
475,Paamiut,GL,2020-04-19 15:57:39,61.99,-49.67,29.25,89,76,20.15,broken clouds,0.0,0.0
476,Tecoanapa,MX,2020-04-19 15:57:39,16.52,-98.75,86.88,48,16,1.63,few clouds,0.0,0.0
477,Casper,US,2020-04-19 15:47:28,42.87,-106.31,45.0,37,1,17.22,clear sky,0.0,0.0
478,Te Anau,NZ,2020-04-19 15:49:05,-45.42,167.72,46.26,69,87,8.81,light rain,0.61,0.0
479,Atikokan,CA,2020-04-19 15:57:40,48.76,-91.62,25.59,84,83,9.57,light snow,0.0,0.12
480,Madang,PG,2020-04-19 15:57:40,-5.22,145.8,80.19,80,85,0.74,light rain,1.66,0.0
481,Richards Bay,ZA,2020-04-19 15:57:40,-28.78,32.04,74.62,68,0,15.3,clear sky,0.0,0.0
482,Poum,NC,2020-04-19 15:49:17,-20.23,164.02,79.25,81,49,13.53,scattered clouds,0.0,0.0
483,Rioblanco,CO,2020-04-19 15:57:40,3.53,-75.68,73.8,37,50,2.98,scattered clouds,0.0,0.0
484,Yining,CN,2020-04-19 15:57:41,29.04,114.56,57.7,74,1,1.48,clear sky,0.0,0.0
485,Itaguai,BR,2020-04-19 15:57:41,-22.85,-43.78,80.6,65,75,5.82,broken clouds,0.0,0.0
486,Buta,CD,2020-04-19 15:57:41,2.79,24.73,78.53,77,100,4.07,light rain,2.15,0.0
487,Monrovia,LR,2020-04-19 15:57:41,6.3,-10.8,91.4,66,40,9.17,scattered clouds,0.0,0.0
488,Caninde De Sao Francisco,BR,2020-04-19 15:57:41,-9.66,-37.79,86.02,61,42,8.41,light rain,1.95,0.0
489,Ondangwa,NA,2020-04-19 15:57:42,-17.92,15.95,89.6,35,80,8.05,broken clouds,0.0,0.0
490,Eureka,US,2020-04-19 15:57:42,40.8,-124.16,52.0,95,85,2.95,overcast clouds,0.0,0.0
491,Belyy Yar,RU,2020-04-19 15:57:42,53.6,91.39,44.6,36,0,4.47,clear sky,0.0,0.0
492,Aitape,PG,2020-04-19 15:57:42,-3.14,142.35,80.62,80,32,2.62,light rain,0.52,0.0
493,Dano,BF,2020-04-19 15:57:43,11.15,-3.07,101.28,23,100,5.41,overcast clouds,0.0,0.0
494,Sioux Lookout,CA,2020-04-19 15:55:58,50.1,-91.92,23.0,41,20,10.29,few clouds,0.0,0.0
495,Sivas,TR,2020-04-19 15:57:43,39.79,37.0,60.48,25,5,11.01,clear sky,0.0,0.0
496,Tairua,NZ,2020-04-19 15:57:43,-37.02,175.85,61.0,86,100,9.46,light rain,0.82,0.0
497,Abashiri,JP,2020-04-19 15:57:44,44.02,144.27,36.86,79,0,8.23,clear sky,0.0,0.0
498,Tooele,US,2020-04-19 15:52:49,40.53,-112.3,53.6,54,90,10.29,overcast clouds,0.0,0.0
499,Prochnookopskaya,RU,2020-04-19 15:57:44,45.07,41.12,61.47,56,57,4.81,broken clouds,0.0,0.0
500,Manono,CD,2020-04-19 15:57:44,-7.3,27.42,78.19,75,88,3.85,moderate rain,4.24,0.0
501,Templin,DE,2020-04-19 15:57:45,53.12,13.5,57.0,32,0,11.86,clear sky,0.0,0.0
502,Port-Gentil,GA,2020-04-19 15:54:25,-0.72,8.78,86.0,79,75,6.93,broken clouds,0.0,0.0
503,Padang,ID,2020-04-19 15:54:18,-0.95,100.35,79.47,76,99,3.18,light rain,1.23,0.0
504,Kasamwa,TZ,2020-04-19 15:57:45,-2.85,32.43,73.24,59,45,2.21,light rain,0.39,0.0
505,Balabac,PH,2020-04-19 15:54:45,7.99,117.06,83.57,79,70,11.61,broken clouds,0.0,0.0
506,Kalmunai,LK,2020-04-19 15:57:46,7.42,81.82,83.35,77,63,6.51,light rain,0.59,0.0
507,Turayf,SA,2020-04-19 15:54:03,31.67,38.66,77.0,29,40,9.17,scattered clouds,0.0,0.0
508,Poli,TZ,2020-04-19 15:57:46,-3.33,36.8,71.6,100,75,4.7,broken clouds,0.0,0.0
509,Bolivar,US,2020-04-19 15:57:47,37.61,-93.41,55.99,86,100,1.14,light rain,0.21,0.0
510,Marzuq,YE,2020-04-19 15:49:44,14.4,46.47,79.11,41,100,11.83,light rain,0.69,0.0
511,Xiantao,CN,2020-04-19 15:57:47,30.38,113.4,60.67,65,20,3.58,few clouds,0.0,0.0
512,Liverpool,GB,2020-04-19 15:56:53,53.41,-2.98,66.0,41,17,13.87,few clouds,0.0,0.0
513,Oksfjord,NO,2020-04-19 15:57:47,70.24,22.35,42.01,100,75,20.8,light intensity drizzle rain,0.0,0.0
514,Urengoy,RU,2020-04-19 15:57:48,65.97,78.37,36.66,98,100,7.78,light rain,1.89,0.0
515,Kavaratti,IN,2020-04-19 15:54:29,10.57,72.64,85.98,68,3,7.27,clear sky,0.0,0.0
516,Lindi,TZ,2020-04-19 15:57:48,-10.0,39.72,82.4,83,75,9.17,broken clouds,0.0,0.0
517,Turbat,PK,2020-04-19 15:57:48,26.0,63.04,87.08,40,90,16.26,overcast clouds,0.0,0.0
518,Linxia,CN,2020-04-19 15:57:49,35.6,103.21,50.54,22,100,7.16,overcast clouds,0.0,0.0
519,Chenghai,CN,2020-04-19 15:57:49,23.46,116.77,78.8,78,55,4.47,broken clouds,0.0,0.0
520,Moerai,PF,2020-04-19 15:57:49,-22.43,-151.33,78.57,81,1,13.98,light rain,0.6,0.0
521,Barstow,US,2020-04-19 15:57:49,34.9,-117.02,54.0,66,1,9.17,clear sky,0.0,0.0
522,Zhaotong,CN,2020-04-19 15:57:50,27.32,103.72,55.8,49,70,4.88,light rain,0.13,0.0
523,Hospet,IN,2020-04-19 15:57:50,15.27,76.4,90.59,19,23,8.57,few clouds,0.0,0.0
524,Aykhal,RU,2020-04-19 15:53:55,66.0,111.5,21.2,48,0,2.24,clear sky,0.0,0.0
525,Nador,MA,2020-04-19 15:55:26,35.17,-2.93,66.2,63,51,20.8,light rain,0.19,0.0
526,Yerbogachen,RU,2020-04-19 15:54:37,61.28,108.01,16.88,91,0,2.39,clear sky,0.0,0.0
527,Takoradi,GH,2020-04-19 15:57:51,4.88,-1.76,87.39,65,53,13.65,light rain,0.75,0.0
528,Bombay,IN,2020-04-19 15:57:22,19.01,72.85,89.6,62,0,6.93,haze,0.0,0.0
529,Eregli,TR,2020-04-19 15:57:51,37.51,34.05,69.53,20,20,1.66,few clouds,0.0,0.0
530,Russell,US,2020-04-19 15:45:22,32.35,-85.2,53.6,87,90,6.93,light rain,0.0,0.0
531,Blagoyevo,RU,2020-04-19 15:57:52,63.37,47.92,36.23,92,100,3.36,light snow,0.0,0.23
532,Taksimo,RU,2020-04-19 15:57:52,56.34,114.88,13.55,81,44,6.4,scattered clouds,0.0,0.0
533,Yulara,AU,2020-04-19 15:57:52,-25.24,130.99,75.2,31,4,4.7,clear sky,0.0,0.0
534,Natal,BR,2020-04-19 15:57:52,-5.79,-35.21,87.8,62,20,11.41,few clouds,0.0,0.0
535,Birnin Kebbi,NG,2020-04-19 15:57:53,12.45,4.2,104.79,15,62,1.45,broken clouds,0.0,0.0
536,Nouadhibou,MR,2020-04-19 15:57:16,20.93,-17.03,73.4,60,0,20.8,clear sky,0.0,0.0
537,Puerto Escondido,MX,2020-04-19 15:57:53,15.85,-97.07,87.8,79,20,5.3,few clouds,0.0,0.0
538,Sur,OM,2020-04-19 15:54:42,22.57,59.53,83.25,60,0,3.98,clear sky,0.0,0.0
539,Bathsheba,BB,2020-04-19 15:49:28,13.22,-59.52,87.8,55,40,23.04,scattered clouds,0.0,0.0
540,Knyaginino,RU,2020-04-19 15:57:54,55.82,45.03,44.28,58,100,3.74,light rain,0.46,0.0
541,Hun,LY,2020-04-19 15:57:54,29.13,15.95,91.53,10,93,7.23,overcast clouds,0.0,0.0
542,Leningradskiy,RU,2020-04-19 15:49:00,69.38,178.42,3.92,91,94,6.42,overcast clouds,0.0,0.0
543,Beira,MZ,2020-04-19 15:52:59,-19.84,34.84,82.4,54,20,14.99,few clouds,0.0,0.0
544,San Marcos De Colon,HN,2020-04-19 15:57:55,13.43,-86.8,81.23,31,6,4.14,clear sky,0.0,0.0
545,Dublin,US,2020-04-19 15:54:35,37.7,-121.94,57.0,81,1,1.68,clear sky,0.0,0.0
546,Iquitos,PE,2020-04-19 15:54:01,-3.75,-73.25,78.8,83,75,3.36,broken clouds,0.0,0.0
547,Cerrito,CO,2020-04-19 15:57:56,6.84,-72.69,77.0,65,40,5.82,scattered clouds,0.0,0.0
548,Gorontalo,ID,2020-04-19 15:57:56,0.54,123.06,77.7,87,97,3.0,moderate rain,5.69,0.0
549,Vilhena,BR,2020-04-19 15:57:56,-12.74,-60.15,78.8,78,20,12.75,few clouds,0.0,0.0
550,Pevek,RU,2020-04-19 15:54:20,69.7,170.31,3.0,94,100,4.59,light snow,0.0,0.15
551,Khasan,RU,2020-04-19 15:54:35,42.43,130.64,44.26,87,100,9.75,overcast clouds,0.0,0.0
552,Luau,AO,2020-04-19 15:57:57,-10.71,22.22,74.66,63,81,3.04,moderate rain,3.43,0.0
553,Phan Thiet,VN,2020-04-19 15:49:48,10.93,108.1,78.44,80,15,4.59,few clouds,0.0,0.0
554,Kloulklubed,PW,2020-04-19 15:57:57,7.04,134.26,77.0,94,75,3.36,broken clouds,0.0,0.0
555,Santa Rosalia,MX,2020-04-19 15:57:57,27.32,-112.28,67.57,35,70,4.47,broken clouds,0.0,0.0
556,Rutland,US,2020-04-19 15:56:03,43.62,-73.02,48.2,45,1,8.05,clear sky,0.0,0.0
557,High Prairie,CA,2020-04-19 15:57:58,55.43,-116.49,36.93,73,56,7.61,broken clouds,0.0,0.0
558,Gimbi,ET,2020-04-19 15:57:58,9.17,35.83,77.61,14,98,2.93,overcast clouds,0.0,0.0
559,Zambezi,ZM,2020-04-19 15:57:59,-13.54,23.1,78.78,41,30,7.56,scattered clouds,0.0,0.0
560,Poya,NC,2020-04-19 15:57:59,-21.35,165.15,75.9,83,48,6.02,light rain,0.2,0.0
561,Ingham,US,2020-04-19 15:57:59,42.6,-84.38,55.4,47,1,8.05,clear sky,0.0,0.0
562,Wawina,HN,2020-04-19 15:57:59,15.42,-84.43,85.68,59,14,4.47,light rain,0.16,0.0
563,Lebu,CL,2020-04-19 15:54:27,-37.62,-73.65,60.04,67,100,5.75,overcast clouds,0.0,0.0
564,Tabou,CI,2020-04-19 15:49:12,4.42,-7.35,86.23,68,100,9.71,overcast clouds,0.0,0.0
565,Betsiamites,CA,2020-04-19 15:58:00,48.94,-68.65,48.2,64,90,6.93,overcast clouds,0.0,0.0
566,Kenora,CA,2020-04-19 15:58:01,49.82,-94.43,23.0,41,40,6.93,scattered clouds,0.0,0.0
567,Alofi,NU,2020-04-19 15:54:53,-19.06,-169.92,77.0,94,43,8.05,scattered clouds,0.0,0.0
568,Gondanglegi,ID,2020-04-19 15:58:01,-7.75,112.01,77.38,87,100,1.97,moderate rain,3.17,0.0
569,Doha,QA,2020-04-19 15:53:32,25.29,51.53,81.0,78,100,5.82,overcast clouds,0.0,0.0
570,Mujiayingzi,CN,2020-04-19 15:58:02,42.12,118.78,42.03,48,66,27.98,broken clouds,0.0,0.0
571,Biltine,TD,2020-04-19 15:58:02,14.53,20.92,101.25,7,99,10.98,overcast clouds,0.0,0.0
572,Slave Lake,CA,2020-04-19 15:58:02,55.28,-114.77,32.0,71,1,2.24,clear sky,0.0,0.0
573,Noumea,NC,2020-04-19 15:54:17,-22.28,166.46,80.01,83,82,5.82,moderate rain,0.0,0.0
